[
  {"name_he": "תל אביב-יפו", "aliases": ["תל אביב", "תל-אביב", "תל אביב יפו"], "lat": 32.08, "lng": 34.78},
  {"name_he": "ירושלים", "aliases": ["ירושלם"], "lat": 31.77, "lng": 35.21},
  {"name_he": "חיפה", "aliases": [], "lat": 32.82, "lng": 34.99},
  {"name_he": "ראשון לציון", "aliases": ["ראשון-לציון"], "lat": 31.97, "lng": 34.80},
  {"name_he": "פתח תקווה", "aliases": ["פתח תקוה", "פתח-תקווה"], "lat": 32.09, "lng": 34.89},
  {"name_he": "אשדוד", "aliases": [], "lat": 31.80, "lng": 34.65},
  {"name_he": "נתניה", "aliases": [], "lat": 32.33, "lng": 34.86},
  {"name_he": "באר שבע", "aliases": ["באר-שבע"], "lat": 31.25, "lng": 34.79},
  {"name_he": "בני ברק", "aliases": ["בני-ברק"], "lat": 32.08, "lng": 34.83},
  {"name_he": "חולון", "aliases": [], "lat": 32.01, "lng": 34.77},
  {"name_he": "רמת גן", "aliases": ["רמת-גן"], "lat": 32.08, "lng": 34.82},
  {"name_he": "אשקלון", "aliases": [], "lat": 31.67, "lng": 34.57},
  {"name_he": "רחובות", "aliases": [], "lat": 31.90, "lng": 34.81},
  {"name_he": "בת ים", "aliases": ["בת-ים"], "lat": 32.02, "lng": 34.75},
  {"name_he": "בית שמש", "aliases": ["בית-שמש"], "lat": 31.75, "lng": 34.99},
  {"name_he": "כפר סבא", "aliases": ["כפר-סבא"], "lat": 32.18, "lng": 34.91},
  {"name_he": "הרצליה", "aliases": [], "lat": 32.16, "lng": 34.84},
  {"name_he": "חדרה", "aliases": [], "lat": 32.44, "lng": 34.92},
  {"name_he": "מודיעין", "aliases": ["מודיעין-מכבים-רעות", "מודיעין מכבים רעות"], "lat": 31.89, "lng": 34.96},
  {"name_he": "נצרת", "aliases": [], "lat": 32.70, "lng": 35.30},
  {"name_he": "לוד", "aliases": [], "lat": 31.95, "lng": 34.89},
  {"name_he": "רמלה", "aliases": [], "lat": 31.93, "lng": 34.87},
  {"name_he": "רעננה", "aliases": [], "lat": 32.18, "lng": 34.87},
  {"name_he": "ראש העין", "aliases": ["ראש-העין"], "lat": 32.08, "lng": 34.95},
  {"name_he": "נהריה", "aliases": [], "lat": 33.01, "lng": 35.10},
  {"name_he": "אילת", "aliases": [], "lat": 29.55, "lng": 34.95},
  {"name_he": "אום אל-פחם", "aliases": ["אום אל פחם"], "lat": 32.52, "lng": 35.15},
  {"name_he": "נצרת עילית", "aliases": ["נוף הגליל", "נצרת-עילית"], "lat": 32.71, "lng": 35.32},
  {"name_he": "קרית אתא", "aliases": ["קריית אתא", "קרית-אתא"], "lat": 32.80, "lng": 35.11},
  {"name_he": "עכו", "aliases": [], "lat": 32.93, "lng": 35.08},
  {"name_he": "עפולה", "aliases": [], "lat": 32.61, "lng": 35.29},
  {"name_he": "קרית גת", "aliases": ["קריית גת", "קרית-גת"], "lat": 31.61, "lng": 34.77},
  {"name_he": "קרית מוצקין", "aliases": ["קריית מוצקין", "קרית-מוצקין"], "lat": 32.83, "lng": 35.08},
  {"name_he": "קרית ים", "aliases": ["קריית ים"], "lat": 32.85, "lng": 35.07},
  {"name_he": "קרית ביאליק", "aliases": ["קריית ביאליק"], "lat": 32.83, "lng": 35.08},
  {"name_he": "קרית אונו", "aliases": ["קריית אונו"], "lat": 32.06, "lng": 34.85},
  {"name_he": "קרית מלאכי", "aliases": ["קריית מלאכי"], "lat": 31.73, "lng": 34.74},
  {"name_he": "קרית שמונה", "aliases": ["קריית שמונה"], "lat": 33.21, "lng": 35.57},
  {"name_he": "קרית ביאליק", "aliases": [], "lat": 32.83, "lng": 35.08},
  {"name_he": "דימונה", "aliases": [], "lat": 31.07, "lng": 35.03},
  {"name_he": "טבריה", "aliases": [], "lat": 32.79, "lng": 35.53},
  {"name_he": "צפת", "aliases": [], "lat": 32.96, "lng": 35.50},
  {"name_he": "כרמיאל", "aliases": [], "lat": 32.92, "lng": 35.29},
  {"name_he": "מעלה אדומים", "aliases": [], "lat": 31.77, "lng": 35.30},
  {"name_he": "אריאל", "aliases": [], "lat": 32.10, "lng": 35.17},
  {"name_he": "גבעתיים", "aliases": [], "lat": 32.07, "lng": 34.81},
  {"name_he": "הוד השרון", "aliases": [], "lat": 32.15, "lng": 34.89},
  {"name_he": "טירת כרמל", "aliases": ["טירת הכרמל"], "lat": 32.76, "lng": 34.97},
  {"name_he": "יבנה", "aliases": [], "lat": 31.88, "lng": 34.73},
  {"name_he": "יהוד", "aliases": ["יהוד-מונוסון"], "lat": 32.03, "lng": 34.88},
  {"name_he": "נס ציונה", "aliases": ["נס-ציונה"], "lat": 31.93, "lng": 34.80},
  {"name_he": "אור יהודה", "aliases": [], "lat": 32.03, "lng": 34.85},
  {"name_he": "אור עקיבא", "aliases": [], "lat": 32.51, "lng": 34.92},
  {"name_he": "שוהם", "aliases": [], "lat": 32.00, "lng": 34.95},
  {"name_he": "גבעת שמואל", "aliases": [], "lat": 32.08, "lng": 34.86},
  {"name_he": "רמת השרון", "aliases": [], "lat": 32.14, "lng": 34.84},
  {"name_he": "רהט", "aliases": [], "lat": 31.39, "lng": 34.75},
  {"name_he": "סח'נין", "aliases": ["סחנין"], "lat": 32.87, "lng": 35.30},
  {"name_he": "טמרה", "aliases": [], "lat": 32.85, "lng": 35.20},
  {"name_he": "שפרעם", "aliases": [], "lat": 32.81, "lng": 35.17},
  {"name_he": "באקה אל-גרבייה", "aliases": ["באקה אל גרבייה"], "lat": 32.42, "lng": 35.05},
  {"name_he": "טייבה", "aliases": [], "lat": 32.27, "lng": 35.01},
  {"name_he": "טירה", "aliases": [], "lat": 32.23, "lng": 34.95},
  {"name_he": "כפר קאסם", "aliases": [], "lat": 32.11, "lng": 34.98},
  {"name_he": "ג'סר א-זרקא", "aliases": ["גסר א-זרקא"], "lat": 32.54, "lng": 34.91},
  {"name_he": "מגדל העמק", "aliases": [], "lat": 32.68, "lng": 35.23},
  {"name_he": "בית שאן", "aliases": [], "lat": 32.50, "lng": 35.50},
  {"name_he": "ערד", "aliases": [], "lat": 31.26, "lng": 35.21},
  {"name_he": "מצפה רמון", "aliases": [], "lat": 30.61, "lng": 34.80},
  {"name_he": "שדרות", "aliases": [], "lat": 31.52, "lng": 34.60},
  {"name_he": "נתיבות", "aliases": [], "lat": 31.42, "lng": 34.59},
  {"name_he": "אופקים", "aliases": [], "lat": 31.31, "lng": 34.62},
  {"name_he": "קצרין", "aliases": [], "lat": 32.99, "lng": 35.69},
  {"name_he": "ראש פינה", "aliases": [], "lat": 32.97, "lng": 35.54},
  {"name_he": "מעלות-תרשיחא", "aliases": ["מעלות תרשיחא"], "lat": 33.02, "lng": 35.28},
  {"name_he": "בנימינה-גבעת עדה", "aliases": ["בנימינה"], "lat": 32.52, "lng": 34.95},
  {"name_he": "זכרון יעקב", "aliases": [], "lat": 32.57, "lng": 34.95},
  {"name_he": "פרדס חנה-כרכור", "aliases": ["פרדס חנה"], "lat": 32.47, "lng": 34.97},
  {"name_he": "גני תקווה", "aliases": [], "lat": 32.06, "lng": 34.87},
  {"name_he": "כפר יונה", "aliases": [], "lat": 32.32, "lng": 34.93},
  {"name_he": "גדרה", "aliases": [], "lat": 31.81, "lng": 34.78},
  {"name_he": "באר יעקב", "aliases": [], "lat": 31.94, "lng": 34.83},
  {"name_he": "חריש", "aliases": [], "lat": 32.47, "lng": 35.04},
  {"name_he": "נשר", "aliases": [], "lat": 32.77, "lng": 35.05},
  {"name_he": "קרית ארבע", "aliases": ["קריית ארבע"], "lat": 31.53, "lng": 35.12},
  {"name_he": "אבן יהודה", "aliases": [], "lat": 32.27, "lng": 34.89},
  {"name_he": "תל מונד", "aliases": [], "lat": 32.25, "lng": 34.92},
  {"name_he": "קדימה-צורן", "aliases": ["קדימה", "צורן"], "lat": 32.28, "lng": 34.93},
  {"name_he": "פרדסיה", "aliases": [], "lat": 32.31, "lng": 34.91},
  {"name_he": "גן יבנה", "aliases": [], "lat": 31.79, "lng": 34.71},
  {"name_he": "קרית יערים", "aliases": ["טלז-סטון"], "lat": 31.80, "lng": 35.10},
  {"name_he": "אלעד", "aliases": [], "lat": 32.05, "lng": 34.95},
  {"name_he": "ביתר עילית", "aliases": [], "lat": 31.70, "lng": 35.12},
  {"name_he": "מודיעין עילית", "aliases": [], "lat": 31.93, "lng": 35.04},
  {"name_he": "רכסים", "aliases": [], "lat": 32.74, "lng": 35.08},
  {"name_he": "גן יבנה", "aliases": [], "lat": 31.79, "lng": 34.71},
  {"name_he": "קרית עקרון", "aliases": [], "lat": 31.87, "lng": 34.82},
  {"name_he": "מזכרת בתיה", "aliases": [], "lat": 31.85, "lng": 34.84},
  {"name_he": "בני עייש", "aliases": [], "lat": 31.73, "lng": 34.76},
  {"name_he": "כפר ורדים", "aliases": [], "lat": 33.00, "lng": 35.27},
  {"name_he": "עומר", "aliases": [], "lat": 31.27, "lng": 34.85},
  {"name_he": "מיתר", "aliases": [], "lat": 31.32, "lng": 34.93},
  {"name_he": "לקיה", "aliases": [], "lat": 31.32, "lng": 34.83},
  {"name_he": "תל שבע", "aliases": [], "lat": 31.25, "lng": 34.83}
]
